[
  {
    "name": "Badger",
    "town": "Center Harbor",
    "lat": 43.724007,
    "lng": -71.4035445,
    "size_acres": null,
    "public_access": null,
    "has_bridge": null,
    "notes": ""
  },
  {
    "name": "Barndoor",
    "town": "Alton",
    "lat": 43.5561145,
    "lng": -71.223514,
    "size_acres": null,
    "public_access": null,
    "has_bridge": null,
    "notes": ""
  },
  {
    "name": "Battleship",
    "town": "Gilford",
    "lat": 43.5917806,
    "lng": -71.3858853,
    "size_acres": null,
    "public_access": null,
    "has_bridge": null,
    "notes": ""
  },
  {
    "name": "Beaver",
    "town": "Center Harbor",
    "lat": 43.673673,
    "lng": -71.4371635,
    "size_acres": null,
    "public_access": null,
    "has_bridge": null,
    "notes": ""
  },
  {
    "name": "Bear",
    "town": "Center Harbor",
    "lat": 43.6428475,
    "lng": -71.402667,
    "size_acres": null,
    "public_access": null,
    "has_bridge": null,
    "notes": ""
  },
  {
    "name": "Becky’s Garden",
    "town": "Gilford",
    "lat": 43.5917806,
    "lng": -71.3858853,
    "size_acres": null,
    "public_access": null,
    "has_bridge": null,
    "notes": ""
  },
  {
    "name": "Big",
    "town": "Laconia",
    "lat": 43.5728445,
    "lng": -71.4631105,
    "size_acres": null,
    "public_access": null,
    "has_bridge": null,
    "notes": ""
  },
  {
    "name": "Big Beaver",
    "town": "Gilford",
    "lat": 43.5917806,
    "lng": -71.3858853,
    "size_acres": null,
    "public_access": null,
    "has_bridge": null,
    "notes": ""
  },
  {
    "name": "Birch #1",
    "town": "Gilford",
    "lat": 43.5917806,
    "lng": -71.3858853,
    "size_acres": null,
    "public_access": null,
    "has_bridge": null,
    "notes": ""
  },
  {
    "name": "Birch #2",
    "town": "Gilford",
    "lat": 43.5917806,
    "lng": -71.3858853,
    "size_acres": null,
    "public_access": null,
    "has_bridge": null,
    "notes": ""
  },
  {
    "name": "Black",
    "town": "Tuftonboro",
    "lat": 43.6715692,
    "lng": -71.3115339,
    "size_acres": null,
    "public_access": null,
    "has_bridge": null,
    "notes": ""
  },
  {
    "name": "Black Cat",
    "town": "Center Harbor",
    "lat": 43.6842044,
    "lng": -71.4215387,
    "size_acres": null,
    "public_access": null,
    "has_bridge": null,
    "notes": ""
  },
  {
    "name": "Black Snap",
    "town": "Alton",
    "lat": 43.55122,
    "lng": -71.30474,
    "size_acres": null,
    "public_access": null,
    "has_bridge": null,
    "notes": ""
  },
  {
    "name": "Blanche",
    "town": "Gilford",
    "lat": 43.5917806,
    "lng": -71.3858853,
    "size_acres": null,
    "public_access": null,
    "has_bridge": null,
    "notes": ""
  },
  {
    "name": "Blanchards",
    "town": "Gilford",
    "lat": 43.5917806,
    "lng": -71.3858853,
    "size_acres": null,
    "public_access": null,
    "has_bridge": null,
    "notes": ""
  },
  {
    "name": "Blueberry",
    "town": "Wolfeboro",
    "lat": 43.555138,
    "lng": -71.211209,
    "size_acres": null,
    "public_access": null,
    "has_bridge": null,
    "notes": ""
  },
  {
    "name": "Breezy",
    "town": "Gilford",
    "lat": 43.615662,
    "lng": -71.3689655,
    "size_acres": null,
    "public_access": null,
    "has_bridge": null,
    "notes": ""
  },
  {
    "name": "Brew",
    "town": "Gilford",
    "lat": 43.5917806,
    "lng": -71.3858853,
    "size_acres": null,
    "public_access": null,
    "has_bridge": null,
    "notes": ""
  },
  {
    "name": "Camp",
    "town": "Gilford",
    "lat": 43.6188905,
    "lng": -71.373536,
    "size_acres": null,
    "public_access": null,
    "has_bridge": null,
    "notes": ""
  },
  {
    "name": "Chase's",
    "town": "Tuftonboro",
    "lat": 43.6515465,
    "lng": -71.2905955,
    "size_acres": null,
    "public_access": null,
    "has_bridge": null,
    "notes": ""
  },
  {
    "name": "Children's",
    "town": "Center Harbor",
    "lat": 43.7100135,
    "lng": -71.3591655,
    "size_acres": null,
    "public_access": null,
    "has_bridge": null,
    "notes": ""
  },
  {
    "name": "Chip",
    "town": "Wolfeboro",
    "lat": 43.5534935,
    "lng": -71.2059315,
    "size_acres": null,
    "public_access": null,
    "has_bridge": null,
    "notes": ""
  },
  {
    "name": "Church",
    "town": "Wolfeboro",
    "lat": 43.5546113,
    "lng": -71.2067693,
    "size_acres": null,
    "public_access": null,
    "has_bridge": null,
    "notes": ""
  },
  {
    "name": "Christmas",
    "town": "Gilford",
    "lat": 43.5917806,
    "lng": -71.3858853,
    "size_acres": null,
    "public_access": null,
    "has_bridge": null,
    "notes": ""
  },
  {
    "name": "Cosy",
    "town": "Gilford",
    "lat": 43.5917806,
    "lng": -71.3858853,
    "size_acres": null,
    "public_access": null,
    "has_bridge": null,
    "notes": ""
  },
  {
    "name": "Cove",
    "town": "Center Harbor",
    "lat": 43.6988865,
    "lng": -71.3583735,
    "size_acres": null,
    "public_access": null,
    "has_bridge": null,
    "notes": ""
  },
  {
    "name": "Cove #1",
    "town": "Gilford",
    "lat": 43.5917806,
    "lng": -71.3858853,
    "size_acres": null,
    "public_access": null,
    "has_bridge": null,
    "notes": ""
  },
  {
    "name": "Cove #2",
    "town": "Gilford",
    "lat": 43.5917806,
    "lng": -71.3858853,
    "size_acres": null,
    "public_access": null,
    "has_bridge": null,
    "notes": ""
  },
  {
    "name": "Cove #3",
    "town": "Gilford",
    "lat": 43.5917806,
    "lng": -71.3858853,
    "size_acres": null,
    "public_access": null,
    "has_bridge": null,
    "notes": ""
  },
  {
    "name": "Cow",
    "town": "Wolfeboro",
    "lat": 43.6277365,
    "lng": -71.3103515,
    "size_acres": null,
    "public_access": null,
    "has_bridge": null,
    "notes": ""
  },
  {
    "name": "Crescent",
    "town": "Gilford",
    "lat": 43.5917806,
    "lng": -71.3858853,
    "size_acres": null,
    "public_access": null,
    "has_bridge": null,
    "notes": ""
  },
  {
    "name": "Rock",
    "town": "Gilford",
    "lat": 43.5917806,
    "lng": -71.3858853,
    "size_acres": null,
    "public_access": null,
    "has_bridge": null,
    "notes": ""
  },
    {
    "name": "Cub",
    "town": "Alton",
    "lat": 43.54970,
    "lng": -71.28595,
    "size_acres": null,
    "public_access": null,
    "has_bridge": null,
    "notes": ""
  },
  {
    "name": "Dale",
    "town": "Gilford",
    "lat": 43.5917806,
    "lng": -71.3858853,
    "size_acres": null,
    "public_access": null,
    "has_bridge": null,
    "notes": ""
  },
  {
    "name": "Devens",
    "town": "Wolfeboro",
    "lat": 43.637038,
    "lng": -71.3193555,
    "size_acres": null,
    "public_access": null,
    "has_bridge": null,
    "notes": ""
  },
  {
    "name": "Diamond",
    "town": "Gilford",
    "lat": 43.57246,
    "lng": -71.3203715,
    "size_acres": null,
    "public_access": null,
    "has_bridge": null,
    "notes": ""
  },
  {
    "name": "Dollar",
    "town": "Center Harbor",
    "lat": 43.638475,
    "lng": -71.3854545,
    "size_acres": null,
    "public_access": null,
    "has_bridge": null,
    "notes": ""
  },
  {
    "name": "Dolly",
    "town": "Meredith",
    "lat": 43.6339745,
    "lng": -71.4088935,
    "size_acres": null,
    "public_access": null,
    "has_bridge": null,
    "notes": ""
  },
  {
    "name": "Dow",
    "town": "Tuftonboro",
    "lat": 43.6560835,
    "lng": -71.3205745,
    "size_acres": null,
    "public_access": null,
    "has_bridge": null,
    "notes": ""
  },
  {
    "name": "Eagle",
    "town": "Meredith",
    "lat": 43.6193433,
    "lng": -71.439882,
    "size_acres": null,
    "public_access": null,
    "has_bridge": null,
    "notes": ""
  },
  {
    "name": "East Twin",
    "town": "Gilford",
    "lat": 43.5917806,
    "lng": -71.3858853,
    "size_acres": null,
    "public_access": null,
    "has_bridge": null,
    "notes": ""
  },
  {
    "name": "Echo",
    "town": "Wolfeboro",
    "lat": 43.6175317,
    "lng": -71.3078177,
    "size_acres": null,
    "public_access": null,
    "has_bridge": null,
    "notes": ""
  },
  {
    "name": "Evergreen",
    "town": "Moultonborough",
    "lat": 43.7268245,
    "lng": -71.395759,
    "size_acres": null,
    "public_access": null,
    "has_bridge": null,
    "notes": ""
  },
  {
    "name": "Farm",
    "town": "Tuftonboro",
    "lat": 43.64765,
    "lng": -71.286638,
    "size_acres": null,
    "public_access": null,
    "has_bridge": null,
    "notes": ""
  },
  {
    "name": "Far Ozone",
    "town": "Gilford",
    "lat": 43.5917806,
    "lng": -71.3858853,
    "size_acres": null,
    "public_access": null,
    "has_bridge": null,
    "notes": ""
  },
  {
    "name": "Fish",
    "town": "Gilford",
    "lat": 43.611288,
    "lng": -71.3674185,
    "size_acres": null,
    "public_access": null,
    "has_bridge": null,
    "notes": ""
  },
  {
    "name": "Five Mile",
    "town": "Center Harbor",
    "lat": 43.6587235,
    "lng": -71.387484,
    "size_acres": null,
    "public_access": null,
    "has_bridge": null,
    "notes": ""
  },
  {
    "name": "Foley's",
    "town": "Gilford",
    "lat": 43.5917806,
    "lng": -71.3858853,
    "size_acres": null,
    "public_access": null,
    "has_bridge": null,
    "notes": ""
  },
  {
    "name": "Ganzey",
    "town": "Gilford",
    "lat": 43.5917806,
    "lng": -71.3858853,
    "size_acres": null,
    "public_access": null,
    "has_bridge": null,
    "notes": ""
  },
  {
    "name": "Gem",
    "town": "Gilford",
    "lat": 43.5917806,
    "lng": -71.3858853,
    "size_acres": null,
    "public_access": null,
    "has_bridge": null,
    "notes": ""
  },
  {
    "name": "Gichigumi",
    "town": "Gilford",
    "lat": 43.55723,
    "lng": -71.30424,
    "size_acres": null,
    "public_access": null,
    "has_bridge": null,
    "notes": ""
  },
  {
    "name": "Glines",
    "town": "Center Harbor",
    "lat": 43.67616,
    "lng": -71.375593,
    "size_acres": 0.1,
    "public_access": null,
    "has_bridge": null,
    "notes": ""
  },
  {
    "name": "Goodwin",
    "town": "Center Harbor",
    "lat": 43.724393,
    "lng": -71.4061085,
    "size_acres": null,
    "public_access": null,
    "has_bridge": null,
    "notes": ""
  },
  {
    "name": "Goose",
    "town": "Center Harbor",
    "lat": 43.6801739,
    "lng": -71.3815086,
    "size_acres": null,
    "public_access": null,
    "has_bridge": null,
    "notes": ""
  },
  {
    "name": "Goose Egg Rock",
    "town": "Gilford",
    "lat": 43.5917806,
    "lng": -71.3858853,
    "size_acres": null,
    "public_access": null,
    "has_bridge": null,
    "notes": ""
  },
  {
    "name": "Governor's",
    "town": "Gilford",
    "lat": 43.6091165,
    "lng": -71.4241175,
    "size_acres": null,
    "public_access": null,
    "has_bridge": null,
    "notes": ""
  },
  {
    "name": "Grant",
    "town": "Gilford",
    "lat": 43.5917806,
    "lng": -71.3858853,
    "size_acres": null,
    "public_access": null,
    "has_bridge": null,
    "notes": ""
  },
  {
    "name": "Guay",
    "town": "Gilford",
    "lat": 43.5917806,
    "lng": -71.3858853,
    "size_acres": null,
    "public_access": null,
    "has_bridge": null,
    "notes": ""
  },
  {
    "name": "Gun",
    "town": "Tuftonboro",
    "lat": 43.6880651,
    "lng": -71.3196879,
    "size_acres": null,
    "public_access": null,
    "has_bridge": null,
    "notes": ""
  },
  {
    "name": "Gypsy",
    "town": "Gilford",
    "lat": 43.5917806,
    "lng": -71.3858853,
    "size_acres": null,
    "public_access": null,
    "has_bridge": null,
    "notes": ""
  },
  {
    "name": "Half-Acre",
    "town": "Gilford",
    "lat": 43.5917806,
    "lng": -71.3858853,
    "size_acres": null,
    "public_access": null,
    "has_bridge": null,
    "notes": ""
  },
  {
    "name": "Half Mile #1",
    "town": "Gilford",
    "lat": 43.5917806,
    "lng": -71.3858853,
    "size_acres": null,
    "public_access": null,
    "has_bridge": null,
    "notes": ""
  },
  {
    "name": "Half Mile #2",
    "town": "Gilford",
    "lat": 43.5917806,
    "lng": -71.3858853,
    "size_acres": null,
    "public_access": null,
    "has_bridge": null,
    "notes": ""
  },
  {
    "name": "Harbour",
    "town": "Gilford",
    "lat": 43.5917806,
    "lng": -71.3858853,
    "size_acres": null,
    "public_access": null,
    "has_bridge": null,
    "notes": ""
  },
  {
    "name": "Harmony",
    "town": "Wolfeboro",
    "lat": 43.5568395,
    "lng": -71.205978,
    "size_acres": null,
    "public_access": null,
    "has_bridge": null,
    "notes": ""
  },
  {
    "name": "Harvard",
    "town": "Gilford",
    "lat": 43.5917806,
    "lng": -71.3858853,
    "size_acres": null,
    "public_access": null,
    "has_bridge": null,
    "notes": ""
  },
  {
    "name": "Hawk’s Nest",
    "town": "Center Harbor",
    "lat": 43.671056,
    "lng": -71.420781,
    "size_acres": null,
    "public_access": null,
    "has_bridge": null,
    "notes": ""
  },
  {
    "name": "Helen",
    "town": "Gilford",
    "lat": 43.5917806,
    "lng": -71.3858853,
    "size_acres": null,
    "public_access": null,
    "has_bridge": null,
    "notes": ""
  },
  {
    "name": "Hemlock Point",
    "town": "Gilford",
    "lat": 43.5917806,
    "lng": -71.3858853,
    "size_acres": null,
    "public_access": null,
    "has_bridge": null,
    "notes": ""
  },
  {
    "name": "Hen",
    "town": "Meredith",
    "lat": 43.635294,
    "lng": -71.447847,
    "size_acres": null,
    "public_access": null,
    "has_bridge": null,
    "notes": ""
  },
  {
    "name": "Hermit",
    "town": "Center Harbor",
    "lat": 43.6804733,
    "lng": -71.3736852,
    "size_acres": null,
    "public_access": null,
    "has_bridge": null,
    "notes": ""
  },
  {
    "name": "Horse",
    "town": "Meredith",
    "lat": 43.6308593,
    "lng": -71.4126218,
    "size_acres": null,
    "public_access": null,
    "has_bridge": null,
    "notes": ""
  },
  {
    "name": "Hull",
    "town": "Center Harbor",
    "lat": 43.6795155,
    "lng": -71.4148265,
    "size_acres": null,
    "public_access": null,
    "has_bridge": null,
    "notes": ""
  },
  {
    "name": "Hurricane",
    "town": "Gilford",
    "lat": 43.5917806,
    "lng": -71.3858853,
    "size_acres": null,
    "public_access": null,
    "has_bridge": null,
    "notes": ""
  },
  {
    "name": "Indian",
    "town": "Gilford",
    "lat": 43.5917806,
    "lng": -71.3858853,
    "size_acres": null,
    "public_access": null,
    "has_bridge": null,
    "notes": ""
  },
  {
    "name": "Jib",
    "town": "Gilford",
    "lat": 43.5917806,
    "lng": -71.3858853,
    "size_acres": null,
    "public_access": null,
    "has_bridge": null,
    "notes": ""
  },
  {
    "name": "Joe's",
    "town": "Center Harbor",
    "lat": 43.6877125,
    "lng": -71.355151,
    "size_acres": null,
    "public_access": null,
    "has_bridge": null,
    "notes": ""
  },
  {
    "name": "Jolly",
    "town": "Gilford",
    "lat": 43.6288315,
    "lng": -71.3771995,
    "size_acres": null,
    "public_access": null,
    "has_bridge": null,
    "notes": ""
  },
  {
    "name": "Keel",
    "town": "Gilford",
    "lat": 43.5917806,
    "lng": -71.3858853,
    "size_acres": null,
    "public_access": null,
    "has_bridge": null,
    "notes": ""
  },
  {
    "name": "Keniston",
    "town": "Wolfeboro",
    "lat": 43.557983,
    "lng": -71.2130585,
    "size_acres": null,
    "public_access": null,
    "has_bridge": null,
    "notes": ""
  },
  {
    "name": "Kinneho",
    "town": "Gilford",
    "lat": 43.5917806,
    "lng": -71.3858853,
    "size_acres": null,
    "public_access": null,
    "has_bridge": null,
    "notes": ""
  },
  {
    "name": "Isle of Pines",
    "town": "Gilford",
    "lat": 43.5917806,
    "lng": -71.3858853,
    "size_acres": null,
    "public_access": null,
    "has_bridge": null,
    "notes": ""
  },
  {
    "name": "Ledge",
    "town": "Wolfeboro",
    "lat": 43.5554045,
    "lng": -71.2081355,
    "size_acres": null,
    "public_access": null,
    "has_bridge": null,
    "notes": ""
  },
  {
    "name": "Leroy",
    "town": "Gilford",
    "lat": 43.5917806,
    "lng": -71.3858853,
    "size_acres": null,
    "public_access": null,
    "has_bridge": null,
    "notes": ""
  },
  {
    "name": "Less In Area",
    "town": "Gilford",
    "lat": 43.5917806,
    "lng": -71.3858853,
    "size_acres": null,
    "public_access": null,
    "has_bridge": null,
    "notes": ""
  },
  {
    "name": "Lincoln",
    "town": "Moultonborough",
    "lat": 43.7169535,
    "lng": -71.365964,
    "size_acres": null,
    "public_access": null,
    "has_bridge": null,
    "notes": ""
  },
  {
    "name": "Little",
    "town": "Laconia",
    "lat": 43.56953,
    "lng": -71.457869,
    "size_acres": null,
    "public_access": null,
    "has_bridge": null,
    "notes": ""
  },
  {
    "name": "Little Badger",
    "town": "Gilford",
    "lat": 43.5917806,
    "lng": -71.3858853,
    "size_acres": null,
    "public_access": null,
    "has_bridge": null,
    "notes": ""
  },
  {
    "name": "Little Barndoor",
    "town": "Alton",
    "lat": 43.5616875,
    "lng": -71.2305425,
    "size_acres": null,
    "public_access": null,
    "has_bridge": null,
    "notes": ""
  },
  {
    "name": "Little Bear",
    "town": "Tuftonboro",
    "lat": 43.6405725,
    "lng": -71.3233905,
    "size_acres": null,
    "public_access": null,
    "has_bridge": null,
    "notes": ""
  },
  {
    "name": "Little Beaver",
    "town": "Gilford",
    "lat": 43.5917806,
    "lng": -71.3858853,
    "size_acres": null,
    "public_access": null,
    "has_bridge": null,
    "notes": ""
  },
  {
    "name": "Little Birch",
    "town": "Wolfeboro",
    "lat": 43.6234105,
    "lng": -71.2982835,
    "size_acres": null,
    "public_access": null,
    "has_bridge": null,
    "notes": ""
  },
  {
    "name": "Little Blueberry",
    "town": "Gilford",
    "lat": 43.5917806,
    "lng": -71.3858853,
    "size_acres": null,
    "public_access": null,
    "has_bridge": null,
    "notes": ""
  },
  {
    "name": "Little Camp",
    "town": "Gilford",
    "lat": 43.6224345,
    "lng": -71.373403,
    "size_acres": null,
    "public_access": null,
    "has_bridge": null,
    "notes": ""
  },
  {
    "name": "Little Cove",
    "town": "Gilford",
    "lat": 43.5917806,
    "lng": -71.3858853,
    "size_acres": null,
    "public_access": null,
    "has_bridge": null,
    "notes": ""
  },
  {
    "name": "Little Ganzey",
    "town": "Gilford",
    "lat": 43.5917806,
    "lng": -71.3858853,
    "size_acres": null,
    "public_access": null,
    "has_bridge": null,
    "notes": ""
  },
  {
    "name": "Little Goodwin",
    "town": "Gilford",
    "lat": 43.5917806,
    "lng": -71.3858853,
    "size_acres": null,
    "public_access": null,
    "has_bridge": null,
    "notes": ""
  },
  {
    "name": "Little Huck",
    "town": "Gilford",
    "lat": 43.5917806,
    "lng": -71.3858853,
    "size_acres": null,
    "public_access": null,
    "has_bridge": null,
    "notes": ""
  },
  {
    "name": "Little Keniston",
    "town": "Gilford",
    "lat": 43.5917806,
    "lng": -71.3858853,
    "size_acres": null,
    "public_access": null,
    "has_bridge": null,
    "notes": ""
  },
  {
    "name": "Little Loon",
    "town": "Gilford",
    "lat": 43.5917806,
    "lng": -71.3858853,
    "size_acres": null,
    "public_access": null,
    "has_bridge": null,
    "notes": ""
  },
  {
    "name": "Little Mark",
    "town": "Gilford",
    "lat": 43.5917806,
    "lng": -71.3858853,
    "size_acres": null,
    "public_access": null,
    "has_bridge": null,
    "notes": ""
  },
  {
    "name": "Little One Mile",
    "town": "Gilford",
    "lat": 43.5917806,
    "lng": -71.3858853,
    "size_acres": null,
    "public_access": null,
    "has_bridge": null,
    "notes": ""
  },
  {
    "name": "Little Pine Tree",
    "town": "Gilford",
    "lat": 43.5917806,
    "lng": -71.3858853,
    "size_acres": null,
    "public_access": null,
    "has_bridge": null,
    "notes": ""
  },
  {
    "name": "Little Pine #1",
    "town": "Gilford",
    "lat": 43.5917806,
    "lng": -71.3858853,
    "size_acres": null,
    "public_access": null,
    "has_bridge": null,
    "notes": ""
  },
  {
    "name": "Little Pine #2",
    "town": "Gilford",
    "lat": 43.5917806,
    "lng": -71.3858853,
    "size_acres": null,
    "public_access": null,
    "has_bridge": null,
    "notes": ""
  },
  {
    "name": "Little Pine #3",
    "town": "Gilford",
    "lat": 43.5917806,
    "lng": -71.3858853,
    "size_acres": null,
    "public_access": null,
    "has_bridge": null,
    "notes": ""
  },
  {
    "name": "Little Plum",
    "town": "Gilford",
    "lat": 43.5917806,
    "lng": -71.3858853,
    "size_acres": null,
    "public_access": null,
    "has_bridge": null,
    "notes": ""
  },
  {
    "name": "Little Ragged",
    "town": "Gilford",
    "lat": 43.5917806,
    "lng": -71.3858853,
    "size_acres": null,
    "public_access": null,
    "has_bridge": null,
    "notes": ""
  },
  {
    "name": "Little Six Mile",
    "town": "Gilford",
    "lat": 43.5917806,
    "lng": -71.3858853,
    "size_acres": null,
    "public_access": null,
    "has_bridge": null,
    "notes": ""
  },
  {
    "name": "Little Two Mile",
    "town": "Gilford",
    "lat": 43.5917806,
    "lng": -71.3858853,
    "size_acres": null,
    "public_access": null,
    "has_bridge": null,
    "notes": ""
  },
  {
    "name": "Little Vixen",
    "town": "Gilford",
    "lat": 43.5917806,
    "lng": -71.3858853,
    "size_acres": null,
    "public_access": null,
    "has_bridge": null,
    "notes": ""
  },
  {
    "name": "Little Whortleberry",
    "town": "Gilford",
    "lat": 43.5917806,
    "lng": -71.3858853,
    "size_acres": null,
    "public_access": null,
    "has_bridge": null,
    "notes": ""
  },
  {
    "name": "Littlest Mud",
    "town": "Gilford",
    "lat": 43.5917806,
    "lng": -71.3858853,
    "size_acres": null,
    "public_access": null,
    "has_bridge": null,
    "notes": ""
  },
  {
    "name": "Loan's",
    "town": "Gilford",
    "lat": 43.5917806,
    "lng": -71.3858853,
    "size_acres": null,
    "public_access": null,
    "has_bridge": null,
    "notes": ""
  },
  {
    "name": "Lockes",
    "town": "Gilford",
    "lat": 43.59297,
    "lng": -71.38961,
    "size_acres": null,
    "public_access": null,
    "has_bridge": null,
    "notes": ""
  },
  {
    "name": "Long Pine",
    "town": "Gilford",
    "lat": 43.5917806,
    "lng": -71.3858853,
    "size_acres": null,
    "public_access": null,
    "has_bridge": null,
    "notes": ""
  },
  {
    "name": "Loon #1",
    "town": "Gilford",
    "lat": 43.5917806,
    "lng": -71.3858853,
    "size_acres": null,
    "public_access": null,
    "has_bridge": null,
    "notes": ""
  },
  {
    "name": "Loon #2",
    "town": "Gilford",
    "lat": 43.5917806,
    "lng": -71.3858853,
    "size_acres": null,
    "public_access": null,
    "has_bridge": null,
    "notes": ""
  },
  {
    "name": "Loon #3",
    "town": "Gilford",
    "lat": 43.5917806,
    "lng": -71.3858853,
    "size_acres": null,
    "public_access": null,
    "has_bridge": null,
    "notes": ""
  },
  {
    "name": "Loon #4",
    "town": "Gilford",
    "lat": 43.5917806,
    "lng": -71.3858853,
    "size_acres": null,
    "public_access": null,
    "has_bridge": null,
    "notes": ""
  },
  {
    "name": "Long",
    "town": "Center Harbor",
    "lat": 43.647301,
    "lng": -71.342359,
    "size_acres": null,
    "public_access": null,
    "has_bridge": null,
    "notes": ""
  },
  {
    "name": "Mark",
    "town": "Gilford",
    "lat": 43.6229185,
    "lng": -71.393654,
    "size_acres": null,
    "public_access": null,
    "has_bridge": null,
    "notes": ""
  },
  {
    "name": "Melody",
    "town": "Wolfeboro",
    "lat": 43.5601435,
    "lng": -71.209706,
    "size_acres": null,
    "public_access": null,
    "has_bridge": null,
    "notes": ""
  },
  {
    "name": "Melvin",
    "town": "Tuftonboro",
    "lat": 43.651023,
    "lng": -71.29882,
    "size_acres": null,
    "public_access": null,
    "has_bridge": null,
    "notes": ""
  },
  {
    "name": "Middle Beaver",
    "town": "Gilford",
    "lat": 43.5917806,
    "lng": -71.3858853,
    "size_acres": null,
    "public_access": null,
    "has_bridge": null,
    "notes": ""
  },
  {
    "name": "Mink",
    "town": "Gilford",
    "lat": 43.619382,
    "lng": -71.386578,
    "size_acres": null,
    "public_access": null,
    "has_bridge": null,
    "notes": ""
  },
  {
    "name": "Mt. Major",
    "town": "Gilford",
    "lat": 43.5917806,
    "lng": -71.3858853,
    "size_acres": null,
    "public_access": null,
    "has_bridge": null,
    "notes": ""
  },
  {
    "name": "Moose",
    "town": "Alton",
    "lat": 43.5474811,
    "lng": -71.2537933,
    "size_acres": null,
    "public_access": null,
    "has_bridge": null,
    "notes": ""
  },
  {
    "name": "Nabby’s",
    "town": "Gilford",
    "lat": 43.5917806,
    "lng": -71.3858853,
    "size_acres": null,
    "public_access": null,
    "has_bridge": null,
    "notes": ""
  },
  {
    "name": "Nine Acre",
    "town": "Gilford",
    "lat": 43.5917806,
    "lng": -71.3858853,
    "size_acres": null,
    "public_access": null,
    "has_bridge": null,
    "notes": ""
  },
  {
    "name": "North Pasture",
    "town": "Gilford",
    "lat": 43.5917806,
    "lng": -71.3858853,
    "size_acres": null,
    "public_access": null,
    "has_bridge": null,
    "notes": ""
  },
  {
    "name": "Oak",
    "town": "Meredith",
    "lat": 43.632738,
    "lng": -71.4501205,
    "size_acres": null,
    "public_access": null,
    "has_bridge": null,
    "notes": ""
  },
  {
    "name": "October Eve",
    "town": "Gilford",
    "lat": 43.5917806,
    "lng": -71.3858853,
    "size_acres": null,
    "public_access": null,
    "has_bridge": null,
    "notes": ""
  },
  {
    "name": "One Mile",
    "town": "Gilford",
    "lat": 43.5917806,
    "lng": -71.3858853,
    "size_acres": null,
    "public_access": null,
    "has_bridge": null,
    "notes": ""
  },
  {
    "name": "Outlaw",
    "town": "Gilford",
    "lat": 43.5917806,
    "lng": -71.3858853,
    "size_acres": null,
    "public_access": null,
    "has_bridge": null,
    "notes": ""
  },
  {
    "name": "Overnight",
    "town": "Gilford",
    "lat": 43.5917806,
    "lng": -71.3858853,
    "size_acres": null,
    "public_access": null,
    "has_bridge": null,
    "notes": ""
  },
  {
    "name": "Palmer",
    "town": "Gilford",
    "lat": 43.5917806,
    "lng": -71.3858853,
    "size_acres": null,
    "public_access": null,
    "has_bridge": null,
    "notes": ""
  },
  {
    "name": "Parker",
    "town": "Wolfeboro",
    "lat": 43.5721925,
    "lng": -71.257761,
    "size_acres": null,
    "public_access": null,
    "has_bridge": null,
    "notes": ""
  },
  {
    "name": "Penny #1",
    "town": "Gilford",
    "lat": 43.5917806,
    "lng": -71.3858853,
    "size_acres": null,
    "public_access": null,
    "has_bridge": null,
    "notes": ""
  },
  {
    "name": "Penny #2",
    "town": "Gilford",
    "lat": 43.5917806,
    "lng": -71.3858853,
    "size_acres": null,
    "public_access": null,
    "has_bridge": null,
    "notes": ""
  },
  {
    "name": "Perch",
    "town": "Tuftonboro",
    "lat": 43.659378,
    "lng": -71.316846,
    "size_acres": null,
    "public_access": null,
    "has_bridge": null,
    "notes": ""
  },
  {
    "name": "Pig",
    "town": "Gilford",
    "lat": 43.588345,
    "lng": -71.389878,
    "size_acres": null,
    "public_access": null,
    "has_bridge": null,
    "notes": ""
  },
  {
    "name": "Pine",
    "town": "Center Harbor",
    "lat": 43.662045,
    "lng": -71.426723,
    "size_acres": null,
    "public_access": null,
    "has_bridge": null,
    "notes": ""
  },
  {
    "name": "Pinehurst",
    "town": "Gilford",
    "lat": 43.5917806,
    "lng": -71.3858853,
    "size_acres": null,
    "public_access": null,
    "has_bridge": null,
    "notes": ""
  },
  {
    "name": "Pistol",
    "town": "Tuftonboro",
    "lat": 43.6578505,
    "lng": -71.310177,
    "size_acres": null,
    "public_access": null,
    "has_bridge": null,
    "notes": ""
  },
  {
    "name": "Pitchwood",
    "town": "Meredith",
    "lat": 43.626199,
    "lng": -71.4428075,
    "size_acres": null,
    "public_access": null,
    "has_bridge": null,
    "notes": ""
  },
  {
    "name": "PixieRock #3",
    "town": "Gilford",
    "lat": 43.5917806,
    "lng": -71.3858853,
    "size_acres": null,
    "public_access": null,
    "has_bridge": null,
    "notes": ""
  },
  {
    "name": "Pleasant",
    "town": "Tuftonboro",
    "lat": 43.6524825,
    "lng": -71.323944,
    "size_acres": null,
    "public_access": null,
    "has_bridge": null,
    "notes": ""
  },
  {
    "name": "Pop",
    "town": "Gilford",
    "lat": 43.5917806,
    "lng": -71.3858853,
    "size_acres": null,
    "public_access": null,
    "has_bridge": null,
    "notes": ""
  },
  {
    "name": "Poplar",
    "town": "Center Harbor",
    "lat": 43.685588,
    "lng": -71.3535885,
    "size_acres": null,
    "public_access": null,
    "has_bridge": null,
    "notes": ""
  },
  {
    "name": "Quarter Mile",
    "town": "Gilford",
    "lat": 43.5917806,
    "lng": -71.3858853,
    "size_acres": null,
    "public_access": null,
    "has_bridge": null,
    "notes": ""
  },
  {
    "name": "Racoon",
    "town": "Gilford",
    "lat": 43.5917806,
    "lng": -71.3858853,
    "size_acres": null,
    "public_access": null,
    "has_bridge": null,
    "notes": ""
  },
  {
    "name": "Ragged",
    "town": "Wolfeboro",
    "lat": 43.6299674,
    "lng": -71.3246336,
    "size_acres": null,
    "public_access": null,
    "has_bridge": null,
    "notes": ""
  },
  {
    "name": "Randall",
    "town": "Center Harbor",
    "lat": 43.7027111,
    "lng": -71.352492,
    "size_acres": null,
    "public_access": null,
    "has_bridge": null,
    "notes": ""
  },
  {
    "name": "Rattlesnake",
    "town": "Alton",
    "lat": 43.566566,
    "lng": -71.2892435,
    "size_acres": null,
    "public_access": null,
    "has_bridge": null,
    "notes": ""
  },
  {
    "name": "Saint's Rest",
    "town": "Gilford",
    "lat": 43.5917806,
    "lng": -71.3858853,
    "size_acres": null,
    "public_access": null,
    "has_bridge": null,
    "notes": ""
  },
  {
    "name": "Sandy",
    "town": "Gilford",
    "lat": 43.6227594,
    "lng": -71.3347145,
    "size_acres": null,
    "public_access": null,
    "has_bridge": null,
    "notes": ""
  },
  {
    "name": "Scavenger",
    "town": "Gilford",
    "lat": 43.5917806,
    "lng": -71.3858853,
    "size_acres": null,
    "public_access": null,
    "has_bridge": null,
    "notes": ""
  },
  {
    "name": "Shelter",
    "town": "Gilford",
    "lat": 43.5917806,
    "lng": -71.3858853,
    "size_acres": null,
    "public_access": null,
    "has_bridge": null,
    "notes": ""
  },
  {
    "name": "Shephard",
    "town": "Gilford",
    "lat": 43.5917806,
    "lng": -71.3858853,
    "size_acres": null,
    "public_access": null,
    "has_bridge": null,
    "notes": ""
  },
  {
    "name": "Ship",
    "town": "Alton",
    "lat": 43.5516723,
    "lng": -71.259575,
    "size_acres": null,
    "public_access": null,
    "has_bridge": null,
    "notes": ""
  },
  {
    "name": "Six Mile",
    "town": "Gilford",
    "lat": 43.5917806,
    "lng": -71.3858853,
    "size_acres": null,
    "public_access": null,
    "has_bridge": null,
    "notes": ""
  },
  {
    "name": "Sleepers",
    "town": "Alton",
    "lat": 43.5530335,
    "lng": -71.292577,
    "size_acres": null,
    "public_access": null,
    "has_bridge": null,
    "notes": ""
  },
  {
    "name": "Small",
    "town": "Gilford",
    "lat": 43.5917806,
    "lng": -71.3858853,
    "size_acres": null,
    "public_access": null,
    "has_bridge": null,
    "notes": ""
  },
  {
    "name": "Spectacle (N)",
    "town": "Gilford",
    "lat": 43.5917806,
    "lng": -71.3858853,
    "size_acres": null,
    "public_access": null,
    "has_bridge": null,
    "notes": ""
  },
  {
    "name": "Spectacle (S)",
    "town": "Gilford",
    "lat": 43.5917806,
    "lng": -71.3858853,
    "size_acres": null,
    "public_access": null,
    "has_bridge": null,
    "notes": ""
  },
  {
    "name": "Spider",
    "town": "Gilford",
    "lat": 43.5917806,
    "lng": -71.3858853,
    "size_acres": null,
    "public_access": null,
    "has_bridge": null,
    "notes": ""
  },
  {
    "name": "Spring",
    "town": "Moultonborough",
    "lat": 43.7241635,
    "lng": -71.3762385,
    "size_acres": null,
    "public_access": null,
    "has_bridge": null,
    "notes": ""
  },
  {
    "name": "Squirrel",
    "town": "Gilford",
    "lat": 43.5917806,
    "lng": -71.3858853,
    "size_acres": null,
    "public_access": null,
    "has_bridge": null,
    "notes": ""
  },
  {
    "name": "Starr",
    "town": "Gilford",
    "lat": 43.5917806,
    "lng": -71.3858853,
    "size_acres": null,
    "public_access": null,
    "has_bridge": null,
    "notes": ""
  },
  {
    "name": "Steamboat",
    "town": "Gilford",
    "lat": 43.63285,
    "lng": -71.3689733,
    "size_acres": null,
    "public_access": null,
    "has_bridge": null,
    "notes": ""
  },
  {
    "name": "Stonedam",
    "town": "Meredith",
    "lat": 43.6292185,
    "lng": -71.4355645,
    "size_acres": null,
    "public_access": null,
    "has_bridge": null,
    "notes": ""
  },
  {
    "name": "Store",
    "town": "Tuftonboro",
    "lat": 43.6764737,
    "lng": -71.3012738,
    "size_acres": null,
    "public_access": null,
    "has_bridge": null,
    "notes": ""
  },
  {
    "name": "Three Mile",
    "town": "Gilford",
    "lat": 43.5917806,
    "lng": -71.3858853,
    "size_acres": null,
    "public_access": null,
    "has_bridge": null,
    "notes": ""
  },
  {
    "name": "Timber",
    "town": "Gilford",
    "lat": 43.612716,
    "lng": -71.396017,
    "size_acres": null,
    "public_access": null,
    "has_bridge": null,
    "notes": ""
  },
  {
    "name": "Tip",
    "town": "Gilford",
    "lat": 43.5917806,
    "lng": -71.3858853,
    "size_acres": null,
    "public_access": null,
    "has_bridge": null,
    "notes": ""
  },
  {
    "name": "Treasure / Redhead",
    "town": "Alton",
    "lat": 43.55118,
    "lng": -71.28249,
    "size_acres": null,
    "public_access": null,
    "has_bridge": null,
    "notes": ""
  },
  {
    "name": "Woodmans Cove",
    "town": "Alton",
    "lat": 43.52207,
    "lng": -71.26815,
    "size_acres": null,
    "public_access": null,
    "has_bridge": null,
    "notes": ""
  },
  {
    "name": "Mount Major",
    "town": "Alton",
    "lat": 43.52146,
    "lng": -71.26765,
    "size_acres": null,
    "public_access": null,
    "has_bridge": null,
    "notes": ""
  },
  {
    "name": "Treasure",
    "town": "Gilford",
    "lat": 43.5917806,
    "lng": -71.3858853,
    "size_acres": null,
    "public_access": null,
    "has_bridge": null,
    "notes": ""
  },
  {
    "name": "Two Mile",
    "town": "Gilford",
    "lat": 43.5917806,
    "lng": -71.3858853,
    "size_acres": null,
    "public_access": null,
    "has_bridge": null,
    "notes": ""
  },
  {
    "name": "Uppershoe",
    "town": "Gilford",
    "lat": 43.5917806,
    "lng": -71.3858853,
    "size_acres": null,
    "public_access": null,
    "has_bridge": null,
    "notes": ""
  },
  {
    "name": "Wallace",
    "town": "Center Harbor",
    "lat": 43.6921737,
    "lng": -71.4130568,
    "size_acres": null,
    "public_access": null,
    "has_bridge": null,
    "notes": ""
  },
  {
    "name": "Welch",
    "town": "Gilford",
    "lat": 43.601021,
    "lng": -71.362727,
    "size_acres": null,
    "public_access": null,
    "has_bridge": null,
    "notes": ""
  },
  {
    "name": "Welcome",
    "town": "Gilford",
    "lat": 43.5917806,
    "lng": -71.3858853,
    "size_acres": null,
    "public_access": null,
    "has_bridge": null,
    "notes": ""
  },
  {
    "name": "Wentworth",
    "town": "Gilford",
    "lat": 43.5917806,
    "lng": -71.3858853,
    "size_acres": null,
    "public_access": null,
    "has_bridge": null,
    "notes": ""
  },
  {
    "name": "Whaleback",
    "town": "Moultonborough",
    "lat": 43.7224355,
    "lng": -71.3856245,
    "size_acres": null,
    "public_access": null,
    "has_bridge": null,
    "notes": ""
  },
  {
    "name": "Whaleback Point",
    "town": "Moultonborough",
    "lat": 43.7224355,
    "lng": -71.3856245,
    "size_acres": null,
    "public_access": null,
    "has_bridge": null,
    "notes": ""
  },
  {
    "name": "Whortleberry",
    "town": "Tuftonboro",
    "lat": 43.6512115,
    "lng": -71.311779,
    "size_acres": null,
    "public_access": null,
    "has_bridge": null,
    "notes": ""
  },
  {
    "name": "Winch",
    "town": "Gilford",
    "lat": 43.5917806,
    "lng": -71.3858853,
    "size_acres": null,
    "public_access": null,
    "has_bridge": null,
    "notes": ""
  },
  {
    "name": "Windswept",
    "town": "Gilford",
    "lat": 43.5917806,
    "lng": -71.3858853,
    "size_acres": null,
    "public_access": null,
    "has_bridge": null,
    "notes": ""
  },
  {
    "name": "Worcester",
    "town": "Wolfeboro",
    "lat": 43.5621885,
    "lng": -71.2006415,
    "size_acres": null,
    "public_access": null,
    "has_bridge": null,
    "notes": ""
  }
]
